City_ID,City,Lat,Lng,Max Temp,Humidity,Cloudiness,Wind Speed,Country,Date
0,qa'en,33.7265,59.1844,22.47,30,1,3.74,IR,1691533248
1,yellowknife,62.456,-114.3525,22.29,40,20,7.72,CA,1691533214
2,iqaluit,63.7506,-68.5145,5.85,86,40,4.63,CA,1691532923
3,waitangi,-43.9535,-176.5597,9.34,92,100,0.89,NZ,1691532903
4,constantia,44.1833,28.65,15.39,66,46,3.79,RO,1691532935
5,shemysheyka,52.892,45.3928,19.24,52,0,3.23,RU,1691533248
6,blackmans bay,-43.0167,147.3167,3.07,94,39,2.98,AU,1691532905
7,kabalo,-6.05,26.9167,26.59,33,2,2.36,CD,1691533249
8,tamanrasset,22.785,5.5228,28.95,32,100,6.17,DZ,1691532950
9,la ronge,55.1001,-105.2842,20.12,49,75,4.63,CA,1691533040
10,bethel,41.3712,-73.414,26.17,69,75,6.69,US,1691532637
11,dakhla,23.6848,-15.958,20.71,90,0,6.76,EH,1691533230
12,kimbe,-5.5502,150.1429,26.61,70,84,4.83,PG,1691533249
13,aitape,-3.1374,142.3475,25.43,87,31,2.13,PG,1691533249
14,longyearbyen,78.2186,15.6401,8.91,71,0,4.12,SJ,1691532722
15,port lincoln,-34.7333,135.8667,12.4,44,0,8.99,AU,1691532915
16,ponta delgada,37.7333,-25.6667,23.4,83,40,4.12,PT,1691533249
17,marica,-22.9194,-42.8186,20.95,89,98,4.02,BR,1691533249
18,arno,60.1167,18.6333,14.88,73,42,9.42,SE,1691533249
19,kenai,60.5544,-151.2583,18.05,80,40,3.09,US,1691532925
20,chonchi,-42.6128,-73.8092,10.07,98,100,2.36,CL,1691532928
21,bardai,11.65,7.2333,21.78,91,99,3.44,NG,1691533130
22,kailua-kona,19.6406,-155.9956,31.98,59,0,6.69,US,1691532726
23,mount isa,-20.7333,139.5,7.87,87,6,0.51,AU,1691532716
24,olonkinbyen,70.9221,-8.7187,4.59,92,100,7.48,SJ,1691532908
25,adamstown,-25.066,-130.1015,22.34,87,92,15.35,PN,1691532908
26,trinidad,-14.8333,-64.9,24.99,57,75,1.54,BO,1691533250
27,port-aux-francais,-49.35,70.2167,1.05,69,94,9.67,TF,1691532707
28,kamaishi,39.2667,141.8833,26.75,89,56,4.49,JP,1691533250
29,broome,42.2506,-75.833,18.83,95,100,5.14,US,1691532908
30,olenino,56.2092,33.4889,12.88,82,43,1.55,RU,1691533220
31,kaga bandoro,6.9896,19.1874,21.69,97,100,1.46,CF,1691533250
32,atafu village,-8.5421,-172.5159,28.66,69,90,5.4,TK,1691533250
33,georgetown,5.4112,100.3354,26.08,91,20,1.54,MY,1691533219
34,anadyr,64.75,177.4833,11.28,81,75,8.0,RU,1691532912
35,hawaiian paradise park,19.5933,-154.9731,28.83,73,20,4.12,US,1691532905
36,peace river,56.2501,-117.286,18.17,88,100,3.09,CA,1691533251
37,pisco,-13.7,-76.2167,21.03,73,0,7.72,PE,1691532917
38,tazovsky,67.4667,78.7,8.76,97,100,4.32,RU,1691532748
39,ribeira grande,38.5167,-28.7,24.32,88,75,10.28,PT,1691532909
40,pundong,-7.9522,110.3486,20.7,89,21,1.43,ID,1691532920
41,yatou,37.15,122.3833,24.21,91,25,3.32,CN,1691533251
42,kievka,50.2619,71.5514,20.54,53,39,4.57,KZ,1691533251
43,invercargill,-46.4,168.35,5.57,93,94,4.92,NZ,1691533251
44,college,64.8569,-147.8028,20.67,89,100,3.09,US,1691532922
45,galesong,-5.3166,119.3661,20.01,77,61,3.25,ID,1691533251
46,rio gallegos,-51.6226,-69.2181,0.03,93,0,2.57,AR,1691532942
47,ivdel',60.6911,60.4206,14.66,94,23,2.05,RU,1691533251
48,igarka,67.4667,86.5833,15.02,63,89,3.11,RU,1691532941
49,whitehorse,60.7161,-135.0538,17.43,67,75,5.66,CA,1691532916
50,grytviken,-54.2811,-36.5092,-3.43,80,31,3.76,GS,1691533252
51,aasiaat,68.7098,-52.8699,4.52,70,50,1.84,GL,1691532907
52,puerto el triunfo,13.2833,-88.55,31.3,63,52,3.42,SV,1691532977
53,lerwick,60.1545,-1.1494,10.0,79,100,13.8,GB,1691533252
54,dyurtyuli,55.4911,54.8688,15.19,94,1,3.51,RU,1691533252
55,naantali,60.4674,22.0243,15.48,77,20,5.14,FI,1691533252
56,avarua,-21.2078,-159.775,24.03,57,20,5.14,CK,1691532919
57,thief river falls,48.1191,-96.1812,25.53,57,0,5.66,US,1691533038
58,albany,42.6001,-73.9662,22.36,83,82,2.24,US,1691532986
59,dudinka,69.4058,86.1778,13.68,64,71,1.04,RU,1691532931
60,petropavlovsk-kamchatsky,53.0452,158.6483,14.33,72,40,4.0,RU,1691532922
61,edinburgh of the seven seas,-37.0676,-12.3116,12.18,90,100,12.77,SH,1691532903
62,uturoa,-16.7333,-151.4333,26.01,77,99,3.07,PF,1691532906
63,kodiak,57.79,-152.4072,12.73,94,75,2.06,US,1691532710
64,thompson,55.7435,-97.8558,14.09,77,100,7.2,CA,1691532906
65,bilibino,68.0546,166.4372,4.58,64,100,2.89,RU,1691532909
66,kalajoki,64.25,23.95,17.73,76,0,3.95,FI,1691533253
67,katsuren-haebaru,26.3369,127.8719,27.43,95,75,6.17,JP,1691533253
68,laguna,38.421,-121.4238,35.17,40,0,6.17,US,1691532940
69,baotou,40.6522,109.8222,25.95,47,100,1.31,CN,1691533253
70,saint-pierre,-21.3393,55.4781,18.82,72,0,2.06,RE,1691533253
71,saipan,15.1355,145.701,29.39,100,40,2.57,MP,1691532953
72,ust-nera,64.5667,143.2,14.53,55,84,0.96,RU,1691532912
73,villa gesell,-37.2639,-56.973,8.36,82,75,5.53,AR,1691533254
74,tiksi,71.6872,128.8694,15.04,53,9,1.47,RU,1691532911
75,hamilton,39.1834,-84.5333,29.03,53,40,4.12,US,1691532930
76,nemuro,43.3236,145.575,18.33,100,100,5.59,JP,1691532904
77,polyarnyy,69.1989,33.4478,17.02,81,2,5.11,RU,1691533254
78,beyneu,45.3167,55.2,29.18,34,0,3.61,KZ,1691533254
79,kapuskasing,49.4169,-82.4331,26.05,50,75,3.09,CA,1691532947
80,tolanaro,-25.0319,46.9987,18.94,93,40,3.82,MG,1691532913
81,puerto ayora,-0.7393,-90.3518,28.98,84,58,3.58,EC,1691532716
82,nar'yan-mar,67.6713,53.087,9.6,74,84,0.72,RU,1691532908
83,pacific grove,36.6177,-121.9166,23.55,78,0,7.72,US,1691533221
84,port elizabeth,-33.918,25.5701,14.5,100,75,3.09,ZA,1691533254
85,qianjiang,30.4151,112.8859,24.68,79,39,2.61,CN,1691533254
86,farkhar,36.5729,69.8578,22.25,38,1,1.66,AF,1691532916
87,vadso,70.0744,29.7487,21.49,94,0,2.57,NO,1691532911
88,tsiombe,-25.3,45.4833,19.99,86,1,4.76,MG,1691533255
89,hotan,37.0997,79.9269,24.94,40,5,2.3,CN,1691533255
90,port alfred,-33.5906,26.891,14.54,97,81,0.45,ZA,1691532940
91,ilulissat,69.2167,-51.1,10.01,53,20,0.51,GL,1691532707
92,sarmiento,-45.5882,-69.07,10.55,54,100,8.71,AR,1691533255
93,qamdo,31.1667,97.2333,5.71,83,70,1.85,CN,1691532955
94,kingston,17.997,-76.7936,30.13,82,69,3.13,JM,1691532772
95,sangkhla buri,15.1555,98.4536,22.54,99,100,0.09,TH,1691533255
96,iringa,-7.7667,35.7,13.68,73,52,4.2,TZ,1691533255
97,stanley,54.868,-1.6985,12.62,73,0,5.14,GB,1691532720
98,ushuaia,-54.8,-68.3,-0.19,90,86,2.85,AR,1691532698
99,yarmouth,41.7057,-70.2286,26.03,89,75,6.71,US,1691533255
100,myeik,12.4333,98.6,26.09,89,100,3.71,MM,1691533255
101,keflavik,64.0049,-22.5624,12.95,87,20,4.12,IS,1691532925
102,new norfolk,-42.7826,147.0587,3.29,95,41,1.39,AU,1691532658
103,hadibu,12.65,54.0333,25.66,80,97,8.28,YE,1691532931
104,alpena,45.0617,-83.4327,24.18,80,40,0.89,US,1691533256
105,gjovik,60.7947,10.6929,12.86,98,100,3.35,NO,1691533256
106,zaozersk,69.4005,32.4476,18.24,81,2,3.12,RU,1691532920
107,jamestown,42.097,-79.2353,23.9,68,0,8.75,US,1691532741
108,carnarvon,-24.8667,113.6333,17.1,84,5,6.54,AU,1691532917
109,puerto natales,-51.7236,-72.4875,1.64,99,100,0.92,CL,1691532905
110,iquique,-20.2208,-70.1431,19.02,79,22,3.55,CL,1691532931
111,salinas,36.6777,-121.6555,27.52,68,0,7.72,US,1691533255
112,port saint john's,-31.6229,29.5448,18.26,72,92,4.54,ZA,1691532748
113,kingscliff,-28.2667,153.5667,17.75,72,18,4.63,AU,1691533208
114,hermanus,-34.4187,19.2345,11.17,82,0,5.32,ZA,1691533256
115,comayagua,14.45,-87.6333,28.08,68,91,1.6,HN,1691533256
116,ostersund,63.1792,14.6357,12.25,87,75,9.26,SE,1691532922
117,howard springs,-12.497,131.047,23.79,55,77,3.2,AU,1691532952
118,severo-yeniseyskiy,60.3725,93.0408,9.64,97,66,1.89,RU,1691532961
119,haiku-pauwela,20.9219,-156.3051,29.73,54,20,10.8,US,1691533257
120,mariental,-24.6333,17.9667,16.29,25,23,5.0,NA,1691533257
121,caluula,11.9661,50.7569,32.39,48,77,4.67,SO,1691533257
122,taveta,-3.3963,37.6736,19.69,84,67,2.63,KE,1691533257
123,butterworth,5.3991,100.3638,26.14,91,20,1.54,MY,1691533257
124,impfondo,1.6381,18.0667,21.77,96,72,0.85,CG,1691533162
125,mejit,10.2753,170.8646,28.27,73,85,6.37,MH,1691532840
126,mossel bay,-34.1831,22.146,12.96,81,52,1.36,ZA,1691533257
127,utrik,11.2278,169.8474,28.43,73,59,6.17,MH,1691532709
128,bowen,-20.0167,148.2333,17.23,83,20,4.39,AU,1691533257
129,east london,-33.0153,27.9116,17.42,76,100,5.15,ZA,1691532721
130,naracoorte,-36.9579,140.7383,6.58,68,4,5.94,AU,1691533258
131,cloppenburg,52.85,8.0333,13.81,79,31,4.5,DE,1691533258
132,crane,31.3974,-102.3501,39.39,18,96,2.76,US,1691532936
133,lucas,41.6501,-83.6666,27.32,55,75,5.14,US,1691533258
134,nadi,-17.8,177.4167,27.0,61,20,2.57,FJ,1691533258
135,funafuti,-8.5243,179.1942,32.0,84,75,2.06,TV,1691533258
136,cudillero,43.5622,-6.1459,20.5,91,0,3.09,ES,1691533258
137,vyritsa,59.4078,30.3481,16.73,70,85,1.87,RU,1691533258
138,west island,-12.1568,96.8225,24.99,83,40,3.6,CC,1691532909
139,zhaotong,27.3167,103.7167,16.35,94,3,0.37,CN,1691533258
140,isafjordur,66.0755,-23.124,11.02,71,0,0.0,IS,1691532717
141,kerikeri,-35.2268,173.9474,10.51,92,21,2.31,NZ,1691532908
142,st. john's,47.5649,-52.7093,15.15,85,98,4.02,CA,1691532712
143,altai,46.3722,96.2583,14.06,75,100,2.69,MN,1691533258
144,humaita,-7.5061,-63.0208,32.26,42,48,1.48,BR,1691533258
145,kristiansund,63.1115,7.732,13.03,94,100,1.54,NO,1691533259
146,margaret river,-33.95,115.0667,10.91,64,5,3.24,AU,1691532908
147,kawm umbu,24.4767,32.9463,36.14,13,0,4.14,EG,1691533259
148,orcopampa,-15.2661,-72.3417,12.37,34,39,4.42,PE,1691533259
149,kelso,46.1468,-122.9084,30.33,50,0,2.57,US,1691533259
150,kuanda,56.3161,116.0806,17.93,69,74,1.93,RU,1691533259
151,bredasdorp,-34.5322,20.0403,9.18,88,0,1.47,ZA,1691532709
152,priob'ye,62.5206,65.5964,15.24,89,84,3.08,RU,1691533259
153,reriutaba,-4.1417,-40.5822,29.03,37,27,1.78,BR,1691533259
154,naberezhnyye chelny,55.7561,52.4289,15.49,91,0,2.51,RU,1691533259
155,richards bay,-28.783,32.0377,17.17,86,0,1.96,ZA,1691532956
156,la breita,-4.2608,-80.8875,27.42,53,100,3.75,PE,1691533260
157,labrador city,52.9463,-66.9114,16.95,55,100,5.14,CA,1691533260
158,akcadag,38.3453,37.9672,22.55,38,0,0.51,TR,1691533260
159,murun-kuren,49.6342,100.1625,15.45,88,100,0.92,MN,1691533260
160,katsuura,35.1333,140.3,27.04,91,100,5.78,JP,1691533260
161,khapa,21.4333,78.9667,24.97,85,100,2.29,IN,1691533260
162,talnakh,69.4865,88.3972,13.45,62,94,1.03,RU,1691532922
163,lihue,21.9789,-159.3672,33.58,66,100,8.23,US,1691532906
164,siwa oasis,29.2041,25.5195,29.94,43,0,6.49,EG,1691533260
165,vernon,50.2581,-119.2691,29.61,38,100,0.51,CA,1691532903
166,suifenhe,44.4,131.1667,17.9,98,96,0.73,CN,1691533260
167,buta,2.7858,24.73,20.79,98,74,0.58,CD,1691532917
168,ocean shores,46.9737,-124.1563,25.25,77,0,6.17,US,1691533068
169,sisimiut,66.9395,-53.6735,8.25,62,9,2.62,GL,1691533261
170,rio cuarto,-33.1307,-64.3499,11.93,50,0,7.2,AR,1691533261
171,vilyuysk,63.7553,121.6247,15.24,51,12,3.08,RU,1691532918
172,kodinsk,58.6881,99.1844,12.89,87,1,0.37,RU,1691533261
173,kyabe,9.4515,18.9449,22.56,94,100,1.18,TD,1691533040
174,balikesir,39.75,28.0,21.98,73,40,7.72,TR,1691533261
175,nadym,65.5333,72.5167,11.48,80,100,8.21,RU,1691533261
176,remire-montjoly,4.9167,-52.2667,28.02,83,0,4.12,GF,1691532926
177,pangody,65.85,74.4859,8.49,84,100,8.22,RU,1691533261
178,dunedin,-45.8742,170.5036,7.67,68,99,4.47,NZ,1691533260
179,lithgow,-33.4833,150.15,8.69,82,10,0.78,AU,1691533261
180,puerto santa,-8.9906,-78.6456,20.92,78,60,5.82,PE,1691532947
181,vikindu,-7.0067,39.2985,21.89,87,1,3.61,TZ,1691533262
182,hilo,19.7297,-155.09,29.6,64,20,4.12,US,1691532926
183,wailua homesteads,22.0669,-159.378,33.24,75,100,8.23,US,1691532716
184,urucui,-7.2294,-44.5561,30.32,32,0,2.5,BR,1691533262
185,guiuan,11.0333,125.7247,28.84,75,100,5.72,PH,1691533262
186,eureka,40.8021,-124.1637,30.37,74,91,3.13,US,1691533244
187,san patricio,28.017,-97.5169,37.32,48,0,8.97,US,1691532929
188,ta`u,-14.2336,-169.5144,27.68,69,88,4.76,AS,1691532715
189,puerto baquerizo moreno,-0.9,-89.6,25.55,73,75,5.66,EC,1691532915
190,bikenibeu village,1.3673,173.1241,28.98,84,75,2.06,KI,1691532959
191,mossendjo,-2.9506,12.7261,21.82,70,80,2.12,CG,1691533262
192,soe,-9.8607,124.284,15.17,88,29,2.32,ID,1691533262
193,coahuayana de hidalgo,18.7,-103.6583,33.1,65,43,3.41,MX,1691533263
194,nagqu,31.5,92.0,4.22,88,67,1.56,CN,1691532963
195,natal,-5.795,-35.2094,25.12,94,40,3.6,BR,1691533228
196,nanao,37.05,136.9667,31.29,78,82,0.28,JP,1691533263
197,qaqortoq,60.7167,-46.0333,5.89,85,9,2.43,GL,1691532935
198,mamit,23.9333,92.4833,20.64,99,100,1.82,IN,1691533263
199,robertsonpet,12.9667,78.2833,22.79,72,100,4.45,IN,1691533263
200,cranbrook,49.4999,-115.7688,24.91,38,75,1.54,CA,1691533035
201,cabedelo,-6.9811,-34.8339,25.37,84,39,5.87,BR,1691532910
202,south hedland,-20.4089,118.5983,14.96,67,0,2.06,AU,1691533264
203,parnu,58.3859,24.4971,14.05,82,20,3.6,EE,1691533264
204,pervomayskoye,43.919,46.7102,25.64,58,0,3.47,RU,1691533264
205,alaghsas,17.0187,8.0168,27.42,63,93,4.99,NE,1691533264
206,koror,7.3398,134.4733,24.18,100,100,2.57,PW,1691533264
207,luderitz,-26.6481,15.1594,16.26,66,0,7.01,NA,1691533264
208,naze,28.3667,129.4833,25.51,92,100,11.32,JP,1691532958
209,sola,-13.8833,167.55,24.64,84,100,10.23,VU,1691533264
210,hammerfest,70.6634,23.6821,23.25,73,0,2.06,NO,1691532934
211,vorgashor,67.5833,63.95,9.05,75,100,2.97,RU,1691532916
212,kaduy,59.2,37.15,19.49,90,96,1.92,RU,1691533265
213,san mariano,7.5,126.0,23.47,87,99,1.38,PH,1691533265
214,coquimbo,-29.9533,-71.3436,14.85,77,75,1.03,CL,1691532960
215,lebu,-37.6167,-73.65,12.3,70,100,3.78,CL,1691533265
216,cabo san lucas,22.8909,-109.9124,37.01,43,20,6.17,MX,1691532629
217,margate,51.3813,1.3862,16.61,91,100,2.24,GB,1691532980
218,akureyri,65.6835,-18.0878,9.96,71,0,4.63,IS,1691533228
219,micheweni,-4.9667,39.8333,24.11,83,1,6.37,TZ,1691533265
220,sakaiminato,35.55,133.2333,30.99,66,75,6.17,JP,1691533265
221,udachny,66.4167,112.4,16.36,62,10,1.81,RU,1691532716
222,zvishavane,-20.3267,30.0665,11.3,47,0,1.18,ZW,1691533265
223,zintan,31.9223,12.252,18.77,59,0,1.04,LY,1691533265
224,wotho,10.1657,166.0102,28.3,78,43,6.65,MH,1691532933
225,navarre,30.4016,-86.8636,34.19,69,0,1.34,US,1691533265
226,trairi,-3.2778,-39.2689,25.62,81,51,6.81,BR,1691533266
227,zapala,-38.8992,-70.0544,11.64,33,100,2.35,AR,1691533266
228,kargopol',61.5071,38.9456,16.38,85,0,2.75,RU,1691533266
229,kapa'a,22.0752,-159.319,33.99,74,100,8.23,US,1691533143
230,donggang,28.9365,114.2259,25.34,97,15,1.03,CN,1691533266
231,monroeville,40.4212,-79.7881,27.55,51,75,2.57,US,1691533266
232,vorkuta,67.5,64.0,9.33,75,100,3.06,RU,1691532935
233,rengasdengklok,-6.1592,107.2981,25.07,88,0,1.92,ID,1691533266
234,west valley,46.5921,-120.6051,31.2,37,0,3.6,US,1691533266
235,slavyanka,42.8633,131.3847,20.09,92,100,0.33,RU,1691533266
236,bamboo flat,11.7,92.7167,28.05,83,75,4.12,IN,1691532956
237,nuku'alofa,-21.1333,-175.2,25.19,88,75,1.03,TO,1691532953
238,happy valley-goose bay,53.3168,-60.3315,18.17,68,40,4.63,CA,1691532926
239,atherton,53.5237,-2.4935,14.01,84,100,1.86,GB,1691533267
240,amahai,-3.3333,128.9167,24.23,87,40,3.87,ID,1691532904
241,ola,59.5833,151.2833,11.75,57,10,1.87,RU,1691532911
242,salalah,17.0151,54.0924,26.05,94,100,3.09,OM,1691533267
243,mount pearl,47.5166,-52.7813,14.14,87,75,5.14,CA,1691532959
244,kegen,43.0197,79.2203,9.67,77,0,2.03,KZ,1691533267
245,mendoza,-32.8908,-68.8272,15.74,21,0,1.54,AR,1691533242
246,obock,12.25,43.0833,30.56,37,97,6.5,DJ,1691533267
247,yanykurgan,43.915,67.2481,26.43,35,0,1.98,KZ,1691533267
248,kununurra,-15.7667,128.7333,14.99,67,16,2.57,AU,1691533268
249,port-gentil,-0.7193,8.7815,23.98,83,20,4.12,GA,1691532915
250,puerto deseado,-47.7503,-65.8938,10.8,48,63,10.67,AR,1691533268
251,forster,-32.1667,152.5167,9.6,100,9,2.04,AU,1691532915
252,fereydunshahr,32.941,50.121,14.54,62,94,2.51,IR,1691533268
253,tippi,7.2,35.45,17.7,96,100,1.62,ET,1691533268
254,antalaha,-14.9003,50.2788,19.7,89,22,2.6,MG,1691533038
255,murakami,38.2333,139.4833,31.94,74,63,2.17,JP,1691533268
256,aguada de pasajeros,22.385,-80.8508,35.72,45,17,3.6,CU,1691533268
257,jayapura,-2.5333,140.7,23.66,88,35,2.06,ID,1691533268
258,genhe,50.7833,121.5167,13.95,72,99,1.46,CN,1691533268
259,codrington,-38.2667,141.9667,7.2,78,26,6.59,AU,1691532931
260,palu,-0.8917,119.8707,23.63,94,58,1.58,ID,1691532957
261,morgan city,29.6994,-91.2068,35.01,70,40,7.2,US,1691533269
262,northam,51.0333,-4.2167,15.9,97,100,3.43,GB,1691532918
263,uusikaupunki,60.8004,21.4084,15.58,77,14,10.97,FI,1691532978
264,makar'yev,57.8797,43.8069,15.37,82,0,2.71,RU,1691533269
265,la'ie,21.6477,-157.9253,31.98,67,6,4.92,US,1691532909
266,volcja draga,45.9069,13.6775,19.99,86,49,1.54,SI,1691533269
267,sultanah,24.4926,39.5857,35.25,8,0,1.54,SA,1691533269
268,isla mujeres,21.2311,-86.731,32.87,69,4,4.16,MX,1691533096
269,visby,57.6409,18.296,13.79,88,13,6.17,SE,1691533269
270,saint-laurent-du-maroni,5.5039,-54.0289,24.76,89,97,1.88,GF,1691533269
271,mahina,-17.5065,-149.489,24.87,88,75,1.54,PF,1691533149
272,hatton,6.8916,80.5955,16.52,93,100,1.02,LK,1691533269
273,kodinar,20.7903,70.7031,26.54,84,100,6.35,IN,1691533270
274,weno,7.4515,151.8468,29.97,79,100,0.0,FM,1691533271
275,tangalle,6.024,80.7911,25.14,88,100,4.24,LK,1691533271
276,papatowai,-46.5619,169.4708,5.45,86,100,7.76,NZ,1691533271
277,ishpeming,46.4885,-87.6676,25.27,55,83,0.5,US,1691533271
278,urangan,-25.3,152.9,17.49,68,13,5.6,AU,1691533271
279,berezovyy,51.6667,135.7,16.61,74,100,2.42,RU,1691533272
280,san pedro pochutla,15.7333,-96.4667,34.28,56,15,3.45,MX,1691532904
281,punta arenas,-53.15,-70.9167,1.56,85,88,2.23,CL,1691533105
282,timbuktu,16.7735,-3.0074,37.36,25,16,3.0,ML,1691533272
283,kone,-21.0595,164.8658,20.27,59,5,3.33,NC,1691532936
284,port mathurin,-19.6833,63.4167,22.44,65,14,9.9,MU,1691532939
285,bangassou,4.7413,22.8184,20.2,99,85,1.05,CF,1691533272
286,filingue,14.3521,3.3168,27.7,65,100,3.31,NE,1691533272
287,lushun,38.8,121.2667,25.12,81,10,4.67,CN,1691533272
288,yuzhno-kurilsk,44.0306,145.8556,17.97,100,100,2.97,RU,1691532935
289,portland,45.5234,-122.6762,31.66,44,20,4.12,US,1691533067
290,coxim,-18.5067,-54.76,30.92,25,1,1.16,BR,1691533273
291,luneville,48.6,6.5,17.94,72,100,2.95,FR,1691533273
292,bima,-8.4667,118.7167,20.93,93,11,1.72,ID,1691533216
293,corner brook,48.9667,-57.9484,20.09,64,48,2.09,CA,1691533274
294,arkhangel'sk,64.5401,40.5433,14.03,91,6,2.38,RU,1691533274
295,port hedland,-20.3167,118.5667,15.03,67,1,2.06,AU,1691532952
296,kisangani,0.5167,25.2,21.51,97,93,0.95,CD,1691532927
297,richfield,44.8833,-93.283,29.16,42,20,5.14,US,1691533274
298,sydney,-33.8679,151.2073,11.88,87,40,4.12,AU,1691532602
299,mili,6.0815,171.735,28.14,77,96,5.77,MH,1691533274
300,hithadhoo,-0.6,73.0833,27.36,75,100,2.26,MV,1691532913
301,klyuchi,52.2667,79.1667,18.37,46,42,0.72,RU,1691532907
302,zelenoborskiy,66.845,32.3622,12.59,86,13,2.49,RU,1691533274
303,puerto leguizamo,-0.1934,-74.7819,23.99,96,96,1.28,CO,1691533274
304,tesistan,20.7833,-103.4833,29.57,31,18,1.92,MX,1691533274
305,moussoro,13.6408,16.4901,27.16,68,81,5.18,TD,1691533275
306,bambanglipuro,-7.95,110.2833,20.77,89,14,1.67,ID,1691533275
307,pico truncado,-46.7949,-67.9573,10.15,43,100,8.7,AR,1691533275
308,mthatha,-31.5889,28.7844,10.31,87,39,2.06,ZA,1691533065
309,midvagur,62.0511,-7.1939,8.46,81,100,11.32,FO,1691533275
310,opuwo,-18.0607,13.84,17.58,30,5,2.08,NA,1691533275
311,howrah,22.5892,88.3103,27.0,94,75,1.54,IN,1691533275
312,tshabong,-26.05,22.45,14.23,19,72,3.41,BW,1691533275
313,aykhal,66.0,111.5,17.0,62,11,2.62,RU,1691533275
314,ancud,-41.8697,-73.8203,10.05,95,100,4.94,CL,1691532916
315,dolinsk,47.35,142.8,14.95,98,100,2.64,RU,1691533275
316,blakely,41.4809,-75.5946,21.3,86,100,2.06,US,1691533276
317,sao joao da barra,-21.6403,-41.0511,23.05,88,15,7.29,BR,1691532688
318,smithers,54.7804,-127.1743,19.18,63,100,6.17,CA,1691533276
319,aoulef,26.9667,1.0833,38.01,14,0,7.79,DZ,1691533276
320,gay,51.4666,58.4552,12.29,89,3,3.26,RU,1691533276
321,miramichi,47.0043,-65.4654,15.7,97,100,3.89,CA,1691533143
322,alice springs,-23.7,133.8833,8.75,66,0,2.57,AU,1691532733
323,khandyga,62.6667,135.6,15.25,59,89,0.16,RU,1691533276
324,katabu,-4.9333,122.5167,22.93,88,62,2.82,ID,1691533276
325,ust'-kulom,61.6864,53.6902,12.75,82,43,1.72,RU,1691533277
326,rifle,39.5347,-107.7831,30.33,8,0,5.66,US,1691533277
327,sao miguel do guama,-1.6267,-47.4833,24.3,95,58,2.29,BR,1691533277
328,illizi,26.4833,8.4667,34.89,20,20,8.67,DZ,1691533277
329,fortuna,40.5982,-124.1573,22.18,75,0,6.17,US,1691532753
330,acarau,-2.8856,-40.12,25.9,82,41,8.71,BR,1691532923
331,maxixe,-23.8597,35.3472,18.89,76,10,3.89,MZ,1691533277
332,saint-francois,46.4154,3.9054,15.69,77,0,1.03,FR,1691532935
333,broken hill,-31.95,141.4333,9.98,56,6,4.1,AU,1691533277
334,sitka,57.0531,-135.33,15.94,77,100,1.54,US,1691532923
335,launceston,-41.45,147.1667,7.31,100,75,3.09,AU,1691533277
336,badger,64.8,-147.5333,20.63,89,100,3.09,US,1691532719
337,kulhudhuffushi,6.6221,73.07,27.71,78,100,5.83,MV,1691533278
338,pago pago,-14.2781,-170.7025,30.55,79,20,4.63,AS,1691533278
339,ca mau,9.1769,105.15,25.66,87,4,2.01,VN,1691533278
340,mana,5.6592,-53.7767,26.19,85,89,3.91,GF,1691533278
341,nogliki,51.8333,143.1667,15.46,72,100,0.34,RU,1691533166
342,puerto francisco de orellana,-0.4667,-76.9667,30.03,62,75,1.54,EC,1691533278
343,santo antonio do sudoeste,-26.0736,-53.7253,17.7,94,100,1.95,BR,1691533278
344,hawkesbury,45.6001,-74.616,23.36,85,98,4.15,CA,1691533279
345,les cayes,18.2,-73.75,29.79,74,53,3.23,HT,1691532928
346,talara,-4.5772,-81.2719,26.42,69,0,6.54,PE,1691533279
347,valdez,1.2492,-78.9831,27.15,79,99,5.28,EC,1691533279
348,colonia,50.9333,6.95,16.09,88,75,2.06,DE,1691532784
349,bogale,16.2833,95.4,25.68,92,100,3.89,MM,1691533279
350,olyokminsk,60.3736,120.4264,17.61,78,66,1.81,RU,1691533279
351,samarinda,-0.5,117.15,22.51,94,35,0.95,ID,1691533209
352,highland city,27.9653,-81.8779,36.68,61,40,5.14,US,1691533279
353,sorong,-0.8833,131.25,24.28,87,100,6.0,ID,1691533279
354,grafenhainichen,51.7333,12.45,15.72,74,83,1.34,DE,1691533279
355,pangkalanbuun,-2.6833,111.6167,22.26,92,89,1.12,ID,1691533279
356,olinda,-8.0089,-34.8553,25.85,78,40,3.09,BR,1691533280
357,vilyuchinsk,52.9306,158.4028,15.15,55,53,2.03,RU,1691532943
358,houlton,46.1262,-67.8403,17.23,94,100,2.57,US,1691533280
359,susuman,62.7833,148.1667,8.58,55,95,0.26,RU,1691533118
360,arteche,12.2645,125.4048,26.67,84,91,2.87,PH,1691533280
361,mumford,5.2618,-0.759,24.0,91,62,6.08,GH,1691533280
362,kudahuvadhoo,2.6708,72.8944,27.28,76,94,2.58,MV,1691533280
363,lynchburg,37.4138,-79.1423,27.95,60,0,2.57,US,1691533200
364,alupka,44.4167,34.05,19.69,82,2,5.52,UA,1691533281
365,langarud,37.197,50.1535,26.73,67,0,1.17,IR,1691533281
366,itacare,-14.2775,-38.9967,22.46,81,1,2.33,BR,1691533281
367,kidal,18.4411,1.4078,28.91,49,85,8.29,ML,1691533112
368,gurh,24.5167,81.5167,26.43,73,100,4.28,IN,1691533281
369,rabaul,-4.1967,152.1721,26.39,81,65,7.86,PG,1691533281
370,sandnessjoen,66.0217,12.6316,22.06,46,40,8.75,NO,1691532750
371,poronaysk,49.2167,143.1167,14.41,87,100,1.25,RU,1691533281
372,lorengau,-2.0226,147.2712,27.47,79,95,6.97,PG,1691533281
373,achit,56.7985,57.8994,14.25,94,0,1.87,RU,1691533282
374,parauna,-16.9478,-50.4486,26.81,24,3,2.38,BR,1691533282
375,sundumbili,-29.1337,31.3975,19.05,74,54,5.19,ZA,1691533282
376,gedo,9.0167,37.45,10.94,98,100,1.06,ET,1691533282
377,oranjemund,-28.55,16.4333,12.37,92,3,5.16,NA,1691532710
378,tchintabaraden,15.8969,5.7985,29.79,54,100,2.53,NE,1691533282
379,lazaro cardenas,17.9583,-102.2,31.78,70,2,5.65,MX,1691533282
380,ouro sogui,15.6,-13.3167,33.54,27,7,3.04,SN,1691533283
381,arraial do cabo,-22.9661,-42.0278,21.92,83,100,4.63,BR,1691532958
382,eregli,37.5133,34.0467,27.38,35,0,2.39,TR,1691533283
383,la rinconada,37.4873,-5.9826,32.1,49,0,3.6,ES,1691533283
384,tynda,55.1667,124.7167,15.76,75,100,0.64,RU,1691533283
385,holualoa,19.6228,-155.9522,29.91,60,0,6.69,US,1691532933
386,masterton,-40.9597,175.6575,6.05,83,3,1.02,NZ,1691533283
387,dolores,-36.3132,-57.6792,6.13,90,86,3.42,AR,1691533283
388,along,28.1667,94.7667,24.77,99,100,0.14,IN,1691533283
389,whangarei,-35.7317,174.3239,11.12,74,84,2.15,NZ,1691533284
390,sidi aissa,35.8855,3.7724,30.2,25,8,3.1,DZ,1691533284
391,benjamin hill,30.1667,-111.1,36.42,31,8,3.0,MX,1691533284
392,machico,32.7,-16.7667,23.73,82,40,1.54,PT,1691533284
393,walvis bay,-22.9575,14.5053,14.53,77,5,0.51,NA,1691533284
394,kargasok,59.0556,80.8572,14.29,72,95,2.95,RU,1691533284
395,salahonda,2.1019,-78.7217,27.2,79,62,5.67,CO,1691533284
396,kavaratti,10.5669,72.642,27.98,75,100,7.7,IN,1691532937
397,corinto,37.9407,22.9573,27.16,65,1,1.89,GR,1691533284
398,hafnarfjordur,64.0671,-21.9377,12.93,71,0,1.54,IS,1691533285
399,canton,23.1167,113.25,28.97,64,88,2.43,CN,1691532712
400,lively,46.4334,-81.1498,26.51,41,85,2.78,CA,1691533285
401,sogndal,61.2283,7.1003,12.21,93,100,4.63,NO,1691533285
402,antsiranana,-12.2787,49.2917,21.73,81,7,5.11,MG,1691532955
403,az zuwaytinah,30.9522,20.1202,26.43,63,0,7.44,LY,1691533285
404,nelson bay,-32.7167,152.15,12.78,95,10,3.13,AU,1691533285
405,newman,37.3138,-121.0208,36.14,22,0,5.36,US,1691532923
406,iskateley,67.6803,53.1512,9.52,74,87,0.67,RU,1691532919
407,ulsteinvik,62.3432,5.8487,14.31,96,99,4.02,NO,1691533285
408,igrim,63.1906,64.4162,13.43,80,98,2.93,RU,1691533285
409,enewetak,11.3474,162.3373,28.67,76,98,7.08,MH,1691532948
410,raja,8.4596,25.678,20.95,96,100,1.66,SS,1691533286
411,princeton,25.5384,-80.4089,32.79,76,40,2.57,US,1691533102
412,tudela,42.0617,-1.6045,24.5,37,0,2.94,ES,1691533286
413,sassandra,4.95,-6.0833,23.81,91,90,4.53,CI,1691533286
414,karoi,-16.8099,29.6925,13.81,65,1,2.25,ZW,1691533286
415,el granada,37.5027,-122.4694,30.45,69,100,6.69,US,1691533286
416,robertsport,6.7533,-11.3686,25.43,88,46,6.3,LR,1691533287
417,saint-philippe,-21.3585,55.7679,18.77,78,37,3.28,RE,1691532949
418,bhayavadar,21.85,70.25,26.07,82,99,5.92,IN,1691533287
419,stephenville,32.2207,-98.2023,41.81,22,0,4.63,US,1691533287
420,abeche,13.8292,20.8324,24.1,81,92,2.36,TD,1691533287
421,jiangyou,31.7667,104.7167,24.09,90,13,1.47,CN,1691533287
422,latnaya,51.6586,38.9011,15.94,74,0,3.02,RU,1691533287
423,wenling,28.3669,121.36,26.59,89,22,1.25,CN,1691533287
424,vrangel',42.7297,133.0839,19.08,98,100,3.23,RU,1691533288
425,selfoss,63.9331,-20.9971,11.69,83,79,0.76,IS,1691532925
426,ambodifotatra,-16.9833,49.85,22.57,75,41,3.0,MG,1691533288
427,palangkaraya,-2.2,113.8333,21.63,88,60,0.92,ID,1691533288
428,anapa,44.8908,37.3239,22.19,83,0,0.0,RU,1691533288
429,corbelia,-24.7989,-53.3067,16.64,97,89,4.92,BR,1691533288
430,mar del plata,-38.0023,-57.5575,10.61,75,0,3.6,AR,1691532945
431,mahdia,35.5047,11.0622,24.97,60,0,1.28,TN,1691533288
432,minas de marcona,-15.2119,-75.1103,15.56,71,3,5.97,PE,1691532919
433,bubaque,11.2833,-15.8333,27.27,88,74,5.99,GW,1691532940
434,vila velha,-20.3297,-40.2925,22.97,89,40,6.69,BR,1691533288
435,lompoc,34.6391,-120.4579,24.88,69,10,2.68,US,1691532768
436,tuensang,26.2833,94.8333,21.85,99,94,0.86,IN,1691533289
437,bandarbeyla,9.4942,50.8122,23.75,84,55,13.16,SO,1691533289
438,floro,61.5996,5.0328,11.09,93,100,7.2,NO,1691533289
439,lamu,-2.2717,40.902,24.1,84,11,7.59,KE,1691532726
440,holetown,13.1867,-59.6381,29.02,76,91,5.31,BB,1691533289
441,prince albert,53.2001,-105.7677,18.97,55,40,3.6,CA,1691532936
442,aneho,6.2333,1.6,24.8,88,6,5.45,TG,1691533289
443,santa elena de uairen,4.6167,-61.1333,22.24,84,39,1.46,VE,1691532663
444,ust-tsilma,65.441,52.1498,10.28,77,25,0.56,RU,1691533289
445,alvaraes,-3.2208,-64.8042,32.93,45,92,1.32,BR,1691533289
446,kenora,49.8167,-94.4337,22.1,82,75,3.58,CA,1691533159
447,mirabad,30.4362,61.8383,31.78,19,0,9.5,AF,1691533289
448,port augusta,-32.5,137.7667,8.41,49,0,4.22,AU,1691533290
449,holbaek,55.7167,11.7167,13.01,76,100,7.15,DK,1691533290
450,al kharijah,25.4514,30.5464,34.87,28,1,7.6,EG,1691533290
451,kirsehir,39.3333,34.1667,22.59,60,0,4.89,TR,1691533290
452,riberalta,-10.9833,-66.1,33.11,52,69,2.06,BO,1691533290
453,nuuk,64.1835,-51.7216,7.71,81,20,2.57,GL,1691532925
454,miguel auza,24.2933,-103.4503,31.56,18,28,8.01,MX,1691532911
455,kourou,5.1552,-52.6478,28.03,84,80,3.94,GF,1691533291
456,hovd,48.0056,91.6419,19.47,54,100,1.69,MN,1691533291
457,saint-pol-sur-mer,51.0312,2.3398,17.25,46,100,6.7,FR,1691533291
458,chui,-33.6971,-53.4616,10.62,81,73,3.31,UY,1691533291
459,bengkulu,-3.8004,102.2655,23.52,93,42,2.42,ID,1691532941
460,hobyo,5.3505,48.5268,24.42,82,65,12.26,SO,1691533291
461,torghay,49.6339,63.4981,24.91,44,77,2.31,KZ,1691533291
462,paracuru,-3.41,-39.0306,26.73,82,55,6.85,BR,1691533291
463,beitbridge,-22.2167,30.0,16.25,43,0,3.62,ZW,1691533292
464,tongliao,43.6125,122.2653,18.71,89,98,2.29,CN,1691533292
465,nicoya,10.1483,-85.452,26.59,87,100,0.63,CR,1691533292
466,ranot,7.7777,100.3213,26.85,81,42,4.11,TH,1691533292
467,yambio,4.5721,28.3955,18.04,97,91,1.05,SS,1691533292
468,yaren,-0.5472,166.916,27.85,71,96,2.5,NR,1691533292
469,sao felix do xingu,-6.6447,-51.995,31.73,30,62,0.6,BR,1691532845
470,yeppoon,-23.1333,150.7333,16.88,81,24,5.88,AU,1691533265
471,harstad,68.799,16.5293,23.66,86,99,2.11,NO,1691533292
472,westport,41.1415,-73.3579,26.64,71,54,5.36,US,1691533270
473,praia da vitoria,38.7333,-27.0667,24.14,83,40,5.94,PT,1691533293
474,luorong,24.4058,109.6086,25.42,93,54,0.34,CN,1691533293
475,chibougamau,49.9168,-74.3659,13.79,88,100,5.14,CA,1691532962
476,barranca,-10.75,-77.7667,19.89,76,10,5.2,PE,1691533293
477,panaba,21.2833,-88.2667,34.85,47,9,9.72,MX,1691533293
478,mbekenyera,-10.0,38.9833,19.37,78,27,2.34,TZ,1691533293
479,maamba,-17.3667,27.15,16.98,50,1,0.95,ZM,1691533294
480,aripuana,-9.1667,-60.6333,30.86,40,36,1.3,BR,1691533294
481,darwin,-12.4611,130.8418,23.83,68,0,2.68,AU,1691533000
482,forquilhinha,-28.7475,-49.4722,13.73,76,100,1.17,BR,1691533294
483,shenkursk,62.1091,42.896,13.85,89,11,1.96,RU,1691533218
484,ridgecrest,35.6225,-117.6709,40.94,7,0,5.81,US,1691533294
485,alvand,36.3187,49.1678,16.92,72,0,1.3,IR,1691533294
486,havre,49.5833,0.3333,17.22,88,100,8.75,FR,1691533294
487,zima,53.9202,102.0442,14.38,98,100,0.81,RU,1691533294
488,manaus,-3.1019,-60.025,31.27,62,20,2.06,BR,1691533295
489,lubang,13.8584,120.124,28.43,80,91,5.9,PH,1691533295
490,fuyu,45.1833,124.8167,18.45,96,100,2.99,CN,1691533295
491,ayabaca,-4.6398,-79.7149,15.77,51,59,0.71,PE,1691533295
492,le rheu,48.1023,-1.7973,16.42,88,0,1.54,FR,1691533296
493,khovd,48.0056,91.6419,19.47,54,100,1.69,MN,1691532938
494,mount gambier,-37.8333,140.7667,6.6,69,0,4.83,AU,1691532929
495,diebougou,10.9667,-3.25,23.05,92,100,1.13,BF,1691533296
496,belyy yar,53.6039,91.3903,15.94,88,0,0.0,RU,1691533296
497,pekanbaru,0.5333,101.45,23.18,100,20,0.0,ID,1691533218
498,san antonio de pale,-1.4014,5.6325,23.7,77,2,5.58,GQ,1691533016
499,china,25.7,-99.2333,42.34,17,11,8.12,MX,1691533210
500,hirtshals,57.5881,9.9592,13.09,82,100,16.61,DK,1691533296
501,paranhos,-23.8928,-55.4311,21.81,63,70,2.67,BR,1691533296
502,acapulco de juarez,16.8634,-99.8901,31.9,70,20,5.14,MX,1691533296
503,dalnegorsk,44.5604,135.5701,17.41,95,100,0.43,RU,1691533297
504,idri,27.5,13.2667,30.0,24,0,4.9,LY,1691533297
505,tura,25.5198,90.2201,23.3,98,100,2.31,IN,1691532651
506,taounate,34.5,-4.8333,32.94,37,58,2.83,MA,1691533297
507,sabha,27.0377,14.4283,29.27,26,0,5.74,LY,1691532921
508,grootfontein,-19.5667,18.1167,16.94,34,77,2.01,NA,1691533229
509,rabo de peixe,37.8,-25.5833,22.73,83,40,4.12,PT,1691533297
510,dryden,49.7833,-92.7503,21.16,60,40,4.63,CA,1691533297
511,vallenar,-28.5708,-70.7581,16.99,44,73,1.5,CL,1691533298
512,porto novo,6.4965,2.6036,25.9,88,22,3.61,BJ,1691532964
513,coihueco,-36.6167,-71.8333,11.41,87,75,1.03,CL,1691533298
514,sungai penuh,-2.0833,101.3833,17.24,97,81,1.14,ID,1691533298
515,christchurch,-43.5333,172.6333,7.96,69,17,2.06,NZ,1691532642
516,caleta de carquin,-11.0925,-77.6267,20.77,74,8,5.6,PE,1691532957
517,ndjole,-0.1783,10.7649,24.94,74,72,2.49,GA,1691533298
518,ilinge,-31.9768,27.0427,10.04,79,89,1.77,ZA,1691533298
519,aberystwyth,52.4155,-4.0829,10.49,83,85,1.36,GB,1691533298
520,mukher,18.7,77.3667,23.92,81,98,4.36,IN,1691533298
521,amos,48.5669,-78.1162,21.24,61,83,2.07,CA,1691533299
522,flying fish cove,-10.4217,105.6791,23.82,88,100,5.66,CX,1691532925
523,saint david's,12.0333,-61.6667,29.26,72,39,3.85,GD,1691533299
524,tevriz,57.509,72.4042,16.83,68,53,1.79,RU,1691533299
525,giyani,-23.3025,30.7187,15.91,46,0,0.85,ZA,1691533299
526,urzhar,47.093,81.6294,19.22,72,70,1.89,KZ,1691533299
527,nyrany,49.7114,13.2119,16.91,62,100,2.68,CZ,1691533299
528,uliastay,47.7417,96.8444,17.81,51,100,1.13,MN,1691532927
529,vila franca do campo,37.7167,-25.4333,23.23,86,21,2.26,PT,1691532927
530,fale old settlement,-9.3852,-171.2468,27.95,76,94,5.41,TK,1691532668
531,tisul',55.7611,88.3122,12.73,80,22,1.38,RU,1691533299
532,ceres,37.5949,-120.9577,35.68,25,0,1.54,US,1691533293
533,anatuya,-28.4606,-62.8347,13.81,70,94,4.28,AR,1691533299
534,san blas,21.5167,-105.2667,36.94,71,57,4.28,MX,1691533300
535,odintsovo,55.678,37.2777,20.46,77,0,2.0,RU,1691533300
536,pierre,44.3683,-100.351,27.51,50,40,3.6,US,1691533300
537,upata,8.0086,-62.3989,29.55,78,95,0.62,VE,1691533300
538,loreto,22.2667,-101.9667,31.28,13,38,7.63,MX,1691533015
539,tebingtinggi,3.3285,99.1625,22.98,98,55,1.11,ID,1691533300
540,zaragoza,41.6561,-0.8773,27.25,45,0,3.09,ES,1691532935
541,afaahiti,-17.75,-149.2833,23.93,88,98,6.56,PF,1691532947
542,nago,26.5881,127.9761,27.47,92,97,7.09,JP,1691533120
543,santo antonio do ica,-3.1022,-67.9397,24.06,93,93,0.11,BR,1691533301
544,necochea,-38.5473,-58.7368,7.13,73,88,4.76,AR,1691533301
545,zyryanskoye,56.8306,86.6258,11.6,87,19,1.04,RU,1691533301
546,moissy-cramayel,48.6167,2.6,19.78,82,0,3.09,FR,1691533301
547,emerald,-23.5333,148.1667,14.08,66,0,2.77,AU,1691533301
548,ringkobing,56.0901,8.244,12.23,67,100,15.26,DK,1691533301
549,yuscaran,13.9333,-86.85,22.58,45,100,2.54,HN,1691533302
550,adolfo lopez mateos,28.4667,-107.3,29.96,23,60,2.72,MX,1691533302
551,marsa alam,25.0757,34.8918,33.68,35,0,3.34,EG,1691533302
552,metlili chaamba,32.2667,3.6333,34.52,14,0,1.54,DZ,1691533302
553,bandon,51.7469,-8.7425,15.77,96,94,1.49,IE,1691533121
554,trondheim,63.4305,10.3951,18.03,75,100,0.89,NO,1691533302
555,eyl,7.9803,49.8164,24.59,79,15,11.13,SO,1691533302
556,muang phonsavan,19.45,103.2167,19.12,100,100,0.82,LA,1691533302
557,lusaka,-15.4067,28.2871,11.14,71,0,1.03,ZM,1691533302
558,andkhoy,36.9529,65.1238,27.46,27,0,3.57,AF,1691533303
559,kotovo,50.3211,44.8012,25.43,38,57,4.37,RU,1691533303
560,palikir - national government center,6.9248,158.1611,26.47,89,100,3.09,FM,1691533303
561,balkanabat,39.5108,54.3671,32.21,21,0,1.73,TM,1691533303
562,coventry,52.4066,-1.5122,14.13,87,100,2.51,GB,1691533251
563,mangrol,21.1167,70.1167,26.98,83,100,7.31,IN,1691533303
564,rundu,-17.9333,19.7667,16.08,38,36,2.76,NA,1691533303
565,mpraeso,6.5932,-0.7346,21.13,97,100,2.42,GH,1691533303
